[
  {
    "name": "Fast Food Popaj",
    "city": "Split",
    "countryCode": "HRV",
    "address": "Poji≈°anska bb",
    "postCode": "21000",
    "latitude": 16.449834452819157,
    "longitude": 43.50494013009314,
    "woltUrl": "https://wolt.com/hr/hrv/split/restaurant/popaj",
    "website": "https://fast-food-popaj-poisan.eatbu.hr/?lang=en",
    "phone": "+38598362714",
    "rating": 4,
    "ratingScore": 9,
    "ratingVolume": 500,
    "timezone": "Europe/Zagreb"
  },
  {
    "name": "GOOD FOOD - Split",
    "city": "Split",
    "countryCode": "HRV",
    "address": "Matije Ivanica 16",
    "postCode": "21000",
    "latitude": 16.4587851,
    "longitude": 43.51628119999999,
    "woltUrl": "https://wolt.com/hr/hrv/split/restaurant/good-food-split-2",
    "website": "https://goodfood.hr/",
    "phone": "+38521349906",
    "rating": 4,
    "ratingScore": 9.4,
    "ratingVolume": 500,
    "timezone": "Europe/Zagreb"
  },
  {
    "name": "Gustico",
    "city": "Split",
    "countryCode": "HRV",
    "address": "Table ulica 2",
    "postCode": "21000",
    "latitude": 16.4353868,
    "longitude": 43.516257,
    "woltUrl": "https://wolt.com/hr/hrv/split/restaurant/gustico",
    "website": "https://web.facebook.com/gusticosplit",
    "phone": "+38521252382",
    "rating": 4,
    "ratingScore": 9.4,
    "ratingVolume": 500,
    "timezone": "Europe/Zagreb"
  },
  {
    "name": "Old House",
    "city": "Split",
    "countryCode": "HRV",
    "address": "Bana Jelaƒçiƒáa 13",
    "postCode": "21000",
    "latitude": 16.4361403,
    "longitude": 43.5096295,
    "woltUrl": "https://wolt.com/hr/hrv/split/restaurant/old-house",
    "website": "https://wolt.com/en",
    "phone": "+385916185621",
    "rating": 4,
    "ratingScore": 9.4,
    "ratingVolume": 500,
    "timezone": "Europe/Zagreb"
  },
  {
    "name": "Bakra Steak & Pizza Bar",
    "city": "Split",
    "countryCode": "HRV",
    "address": "Radovanova 2",
    "postCode": "21000",
    "latitude": 16.4432449,
    "longitude": 43.5062059,
    "woltUrl": "https://wolt.com/hr/hrv/split/restaurant/bakra-steak-pizza-bar",
    "website": "http://bakra.hr/hr/",
    "phone": "+38521488488",
    "rating": 4,
    "ratingScore": 9.4,
    "ratingVolume": 500,
    "timezone": "Europe/Zagreb"
  },
  {
    "name": "Adriatic sushi & oyster bar Split",
    "city": "Split",
    "countryCode": "HRV",
    "address": "Carrarina poljana 4",
    "postCode": "21000",
    "latitude": 16.441091001033783,
    "longitude": 43.50881748716296,
    "woltUrl": "https://wolt.com/hr/hrv/split/restaurant/imeadriatic-sushi-oyster-bar-split",
    "website": "https://www.facebook.com/SushiOysterSplit/",
    "phone": "+385993607777",
    "rating": 4,
    "ratingScore": 9.4,
    "ratingVolume": 500,
    "timezone": "Europe/Zagreb"
  },
  {
    "name": "Kebabsito",
    "city": "Split",
    "countryCode": "HRV",
    "address": "Drage Ivani≈°eviƒáa 18",
    "postCode": "21000",
    "latitude": 16.4625123,
    "longitude": 43.5129492,
    "woltUrl": "https://wolt.com/hr/hrv/split/restaurant/kebabsito",
    "website": "https://www.facebook.com/KebabsitoSplit/",
    "phone": "+38521257349",
    "rating": 4,
    "ratingScore": 9,
    "ratingVolume": 500,
    "timezone": "Europe/Zagreb"
  },
  {
    "name": "Kebabsito PLUS",
    "city": "Split",
    "countryCode": "HRV",
    "address": "Drage Ivani≈°eviƒáa 16",
    "postCode": "21000",
    "latitude": 16.462082204524787,
    "longitude": 43.51256893427019,
    "woltUrl": "https://wolt.com/hr/hrv/split/restaurant/kebabsito-plus",
    "website": "https://www.facebook.com/KebabsitoSplit/",
    "phone": "+38521357325",
    "rating": 4,
    "ratingScore": 9.4,
    "ratingVolume": 500,
    "timezone": "Europe/Zagreb"
  },
  {
    "name": "Kebab City",
    "city": "Split",
    "countryCode": "HRV",
    "address": "Zagrebacka 35a",
    "postCode": "21000",
    "latitude": 16.442681102721195,
    "longitude": 43.507366450583675,
    "woltUrl": "https://wolt.com/hr/hrv/split/restaurant/kebab-cityst",
    "website": "https://wolt.com/hr/hrv/split",
    "phone": "+385955951827",
    "rating": 4,
    "ratingScore": 9,
    "ratingVolume": 200,
    "timezone": "Europe/Zagreb"
  },
  {
    "name": "Fast food Ja&Ja",
    "city": "Split",
    "countryCode": "HRV",
    "address": "Ulica Slobode 5",
    "postCode": "21000",
    "latitude": 16.4479396,
    "longitude": 43.5065937,
    "woltUrl": "https://wolt.com/hr/hrv/split/restaurant/fast-food-jaja",
    "website": "https://fast-food-jaja-split.eatbu.com/?lang=en",
    "phone": "+38521249390",
    "rating": 3,
    "ratingScore": 9,
    "ratingVolume": 200,
    "timezone": "Europe/Zagreb"
  },
  {
    "name": "Pizzeria Piccola",
    "city": "Split",
    "countryCode": "HRV",
    "address": "Vranƒçiƒáeva 1",
    "postCode": " 21000",
    "latitude": 16.4620637,
    "longitude": 43.51209100000001,
    "woltUrl": "https://wolt.com/hr/hrv/split/restaurant/piccolast",
    "website": "https://pizzeriapiccola-pizzarestaurant.business.site/",
    "phone": "+385993675352",
    "rating": 4,
    "ratingScore": 9.2,
    "ratingVolume": 500,
    "timezone": "Europe/Zagreb"
  },
  {
    "name": "Mala Kuƒáa",
    "city": "Split",
    "countryCode": "HRV",
    "address": "Put Firula 39",
    "postCode": "21000",
    "latitude": 16.455215513706207,
    "longitude": 43.50159213063658,
    "woltUrl": "https://wolt.com/hr/hrv/split/restaurant/mala-kuca",
    "website": "https://www.facebook.com/fastfood.malakuca/",
    "phone": "+385914444223",
    "rating": 3,
    "ratingScore": 8.8,
    "ratingVolume": 500,
    "timezone": "Europe/Zagreb"
  },
  {
    "name": "Casa de Fuego",
    "city": "Split",
    "countryCode": "HRV",
    "address": "ƒåuliƒáa dvori 2",
    "postCode": "21000",
    "latitude": 16.4427727,
    "longitude": 43.5093066,
    "woltUrl": "https://wolt.com/hr/hrv/split/restaurant/casa-de-fuego",
    "website": "https://wolt.com/",
    "phone": "+38521643436",
    "rating": 3,
    "ratingScore": 8.8,
    "ratingVolume": 200,
    "timezone": "Europe/Zagreb"
  },
  {
    "name": "4Burgers - Split 2",
    "city": "Split",
    "countryCode": "HRV",
    "address": "This is a virtual venue",
    "postCode": "21000",
    "latitude": 16.4587816,
    "longitude": 43.5162902,
    "woltUrl": "https://wolt.com/hr/hrv/split/restaurant/4burgers-split-2",
    "website": "https://goodfood.hr/",
    "phone": "+38521349906",
    "rating": 4,
    "ratingScore": 9.4,
    "ratingVolume": 20,
    "timezone": "Europe/Zagreb"
  },
  {
    "name": "Milky Split",
    "city": "Split",
    "countryCode": "HRV",
    "address": "Put Firula 39",
    "postCode": "21000",
    "latitude": 16.4552382,
    "longitude": 43.5015773,
    "woltUrl": "https://wolt.com/hr/hrv/split/restaurant/milky-split",
    "website": "https://www.milkysplit.com.hr/",
    "phone": "+385914444223",
    "rating": 3,
    "ratingScore": 8.8,
    "ratingVolume": 200,
    "timezone": "Europe/Zagreb"
  },
  {
    "name": "Restoran Asia",
    "city": "Split",
    "countryCode": "HRV",
    "address": "Poljiƒçka cesta 39",
    "postCode": "21 000",
    "latitude": 16.4716916,
    "longitude": 43.5084203,
    "woltUrl": "https://wolt.com/hr/hrv/split/restaurant/restoran-asia",
    "website": "http://www.asia-split.com.hr/",
    "phone": "+385919111869",
    "rating": 4,
    "ratingScore": 9,
    "ratingVolume": 500,
    "timezone": "Europe/Zagreb"
  },
  {
    "name": "Restoran Opatija",
    "city": "Split",
    "countryCode": "HRV",
    "address": "Fausta Vranƒçiƒáa 1",
    "postCode": "21000",
    "latitude": 16.4621097,
    "longitude": 43.5118645,
    "woltUrl": "https://wolt.com/hr/hrv/split/restaurant/restoran-opatija",
    "website": "https://wolt.com/hr/hrv/split",
    "phone": "+38521648278",
    "rating": 3,
    "ratingScore": 8.4,
    "ratingVolume": 200,
    "timezone": "Europe/Zagreb"
  },
  {
    "name": "Palaƒçinke & grill Denis",
    "city": "Split",
    "countryCode": "HRV",
    "address": "This is a virtual venue",
    "postCode": "21000",
    "latitude": 16.4653653,
    "longitude": 43.506524,
    "woltUrl": "https://wolt.com/hr/hrv/split/restaurant/palacinke-grill-denis",
    "website": "https://www.facebook.com/PalacinkeDenis",
    "phone": "+38521208888",
    "rating": 3,
    "ratingScore": 8.6,
    "ratingVolume": 50,
    "timezone": "Europe/Zagreb"
  },
  {
    "name": "Fast Food Donatelo",
    "city": "Split",
    "countryCode": "HRV",
    "address": " Kroz Smrdeƒçac 39",
    "postCode": " 21000",
    "latitude": 16.4731674,
    "longitude": 43.5092535,
    "woltUrl": "https://wolt.com/hr/hrv/split/restaurant/fast-food-donatelo-st",
    "website": "https://www.facebook.com/people/Fast-food-Donatelo/100069218410052/",
    "phone": "+385955202302",
    "rating": 3,
    "ratingScore": 8.2,
    "ratingVolume": 200,
    "timezone": "Europe/Zagreb"
  },
  {
    "name": "Peƒçenjarnica Brko",
    "city": "Split",
    "countryCode": "HRV",
    "address": "≈†ibenska 37",
    "postCode": "21000",
    "latitude": 16.4564935,
    "longitude": 43.5196654,
    "woltUrl": "https://wolt.com/hr/hrv/split/restaurant/fast-food-peenjarnica-brko",
    "website": "https://www.facebook.com/pages/category/Fast-Food-Restaurant/Fast-food-Brko-100282624824663/",
    "phone": "+385989718333",
    "rating": 4,
    "ratingScore": 9.6,
    "ratingVolume": 200,
    "timezone": "Europe/Zagreb"
  },
  {
    "name": "Food King",
    "city": "Split",
    "countryCode": "HRV",
    "address": "Trondheimska 21B",
    "postCode": "21000",
    "latitude": 16.4809538,
    "longitude": 43.5105468,
    "woltUrl": "https://wolt.com/hr/hrv/split/restaurant/food-king",
    "website": "https://wolt.com/",
    "phone": "+38521282592",
    "rating": 3,
    "ratingScore": 8.8,
    "ratingVolume": 500,
    "timezone": "Europe/Zagreb"
  },
  {
    "name": "Fast Food Bublica",
    "city": "Split",
    "countryCode": "HRV",
    "address": "Matice Hrvatske 13",
    "postCode": "21000",
    "latitude": 16.4650479,
    "longitude": 43.5102643,
    "woltUrl": "https://wolt.com/hr/hrv/split/restaurant/fast-food-bublica",
    "website": "https://wolt.com/hr/hrv/split/restaurant/fast-food-bublica",
    "phone": "+385955058566",
    "rating": 3,
    "ratingScore": 8.4,
    "ratingVolume": 100,
    "timezone": "Europe/Zagreb"
  },
  {
    "name": "Olimp Pizzeria",
    "city": "Split",
    "countryCode": "HRV",
    "address": "Lovrinaƒçka 16",
    "postCode": "21000",
    "latitude": 16.4947736,
    "longitude": 43.518949,
    "woltUrl": "https://wolt.com/hr/hrv/split/restaurant/burlone-pizzeria",
    "website": "https://wolt.com/hr/hrv/split",
    "phone": "+385995360812",
    "rating": 3,
    "ratingScore": 9,
    "ratingVolume": 20,
    "timezone": "Europe/Zagreb"
  },
  {
    "name": "Chinese Food - Joker",
    "city": "Split",
    "countryCode": "HRV",
    "address": "Put Brodarice 6",
    "postCode": "21000",
    "latitude": 16.4459429,
    "longitude": 43.5193638,
    "woltUrl": "https://wolt.com/hr/hrv/split/restaurant/chinese-food",
    "website": "https://www.facebook.com/yunchinesefoodsplit/",
    "phone": "+385913036688",
    "rating": 4,
    "ratingScore": 9.4,
    "ratingVolume": 500,
    "timezone": "Europe/Zagreb"
  },
  {
    "name": "McDonald's - Split Joker",
    "city": "Split",
    "countryCode": "HRV",
    "address": "Put brodarice 6",
    "postCode": "21000",
    "latitude": 16.44692529116072,
    "longitude": 43.52046580575915,
    "woltUrl": "https://wolt.com/hr/hrv/split/restaurant/mcdonalds-split-joker",
    "website": "https://mcdonalds.hr/",
    "phone": "+385993625180",
    "rating": 3,
    "ratingScore": 8.8,
    "ratingVolume": 500,
    "timezone": "Europe/Zagreb"
  },
  {
    "name": "Submarine Burger Split - Centar",
    "city": "Split",
    "countryCode": "HRV",
    "address": "Morpurgova poljana 2",
    "postCode": "21000",
    "latitude": 16.4373616,
    "longitude": 43.5086045,
    "woltUrl": "https://wolt.com/hr/hrv/split/restaurant/submarine-split-centar",
    "website": "https://submarineburger.com/welcome/",
    "phone": "+38521272960",
    "rating": 4,
    "ratingScore": 9.2,
    "ratingVolume": 500,
    "timezone": "Europe/Zagreb"
  },
  {
    "name": "Ist & Pit",
    "city": "Split",
    "countryCode": "HRV",
    "address": "Ul. Slobode 46",
    "postCode": "21000",
    "latitude": 16.4465057,
    "longitude": 43.5168063,
    "woltUrl": "https://wolt.com/hr/hrv/split/restaurant/ist-pit",
    "website": "https://www.facebook.com/istpit-114053413688064/",
    "phone": "+38521632010",
    "rating": 4,
    "ratingScore": 9.2,
    "ratingVolume": 500,
    "timezone": "Europe/Zagreb"
  },
  {
    "name": "Stari Plac Grad",
    "city": "Split",
    "countryCode": "HRV",
    "address": "Ul. Zrinsko Frankopanska 6, ",
    "postCode": "21000",
    "latitude": 16.4365047,
    "longitude": 43.5126431,
    "woltUrl": "https://wolt.com/hr/hrv/split/restaurant/stari-plac-grad",
    "website": "https://stariplac.com/",
    "phone": "+38521785290",
    "rating": 4,
    "ratingScore": 9,
    "ratingVolume": 100,
    "timezone": "Europe/Zagreb"
  },
  {
    "name": "Food Bar Doza",
    "city": "Split",
    "countryCode": "HRV",
    "address": "Gunduliƒáeva 13",
    "postCode": "21000 ",
    "latitude": 16.4383175,
    "longitude": 43.5144579,
    "woltUrl": "https://wolt.com/hr/hrv/split/restaurant/food-bar-doza",
    "website": "https://www.facebook.com/foodbardoza/",
    "phone": "+385977111169",
    "rating": 4,
    "ratingScore": 9.4,
    "ratingVolume": 200,
    "timezone": "Europe/Zagreb"
  },
  {
    "name": "Fast Food  Pistaccio",
    "city": "Split",
    "countryCode": "HRV",
    "address": "A.G. Mato≈°eva 26",
    "postCode": "21000",
    "latitude": 16.43054962385252,
    "longitude": 43.51316817441345,
    "woltUrl": "https://wolt.com/hr/hrv/split/restaurant/fast-food-pistaccio",
    "website": "https://www.facebook.com/fast.food.pistaccio",
    "phone": "+38521400613",
    "rating": 4,
    "ratingScore": 9.4,
    "ratingVolume": 500,
    "timezone": "Europe/Zagreb"
  },
  {
    "name": "LAF",
    "city": "Split",
    "countryCode": "HRV",
    "address": "Ma≈æuraniƒáevo ≈°etali≈°te 10",
    "postCode": "21000",
    "latitude": 16.4461551,
    "longitude": 43.5132024,
    "woltUrl": "https://wolt.com/hr/hrv/split/restaurant/laf",
    "website": "https://wolt.com/hr/hrv/split",
    "phone": "+38598321984",
    "rating": 4,
    "ratingScore": 9.2,
    "ratingVolume": 500,
    "timezone": "Europe/Zagreb"
  },
  {
    "name": "Galina - peƒçenjarnica",
    "city": "Split",
    "countryCode": "HRV",
    "address": "Hrvatske mornarice bb",
    "postCode": "21000",
    "latitude": 16.439881867099697,
    "longitude": 43.5184512624839,
    "woltUrl": "https://wolt.com/hr/hrv/split/restaurant/peenjarnica-galina",
    "website": "https://www.fastfoodgalina.com.hr/",
    "phone": "+385995722999",
    "rating": 3,
    "ratingScore": 9,
    "ratingVolume": 500,
    "timezone": "Europe/Zagreb"
  },
  {
    "name": "Pizzeria Portas",
    "city": "Split",
    "countryCode": "HRV",
    "address": "Kraj Zlatnih vrata 1",
    "postCode": "21000",
    "latitude": 16.4406647,
    "longitude": 43.509039,
    "woltUrl": "https://wolt.com/hr/hrv/split/restaurant/pizzeria-portas",
    "website": "https://pizzeriaportas.hr/en/?utm_source=gmb&utm_medium=gmb_web&utm_campaign=localgmb",
    "phone": "+385995555715",
    "rating": 4,
    "ratingScore": 9.4,
    "ratingVolume": 200,
    "timezone": "Europe/Zagreb"
  },
  {
    "name": "Bajamina - Domovinskog rata",
    "city": "Split",
    "countryCode": "HRV",
    "address": "Domovinskog rata 11",
    "postCode": "21000",
    "latitude": 16.4426111,
    "longitude": 43.5134738,
    "woltUrl": "https://wolt.com/hr/hrv/split/restaurant/bajamina",
    "website": "http://www.bajamina.com/#!/onama",
    "phone": "+385976702432",
    "rating": 4,
    "ratingScore": 9.6,
    "ratingVolume": 500,
    "timezone": "Europe/Zagreb"
  },
  {
    "name": "≈†katula",
    "city": "Split",
    "countryCode": "HRV",
    "address": "Poji≈°anska 5",
    "postCode": "21000",
    "latitude": 16.44948899745941,
    "longitude": 43.50491425571439,
    "woltUrl": "https://wolt.com/hr/hrv/split/restaurant/skatula",
    "website": "https://wolt.com/en",
    "phone": "+385919033112",
    "rating": 4,
    "ratingScore": 9.4,
    "ratingVolume": 500,
    "timezone": "Europe/Zagreb"
  },
  {
    "name": "Pizza Cut Planet",
    "city": "Split",
    "countryCode": "HRV",
    "address": "Petra Iliƒça ƒåajkovskog 5",
    "postCode": "21000",
    "latitude": 16.436684,
    "longitude": 43.5119756,
    "woltUrl": "https://wolt.com/hr/hrv/split/restaurant/pizza-cut-planet",
    "website": "https://wolt.com/en",
    "phone": "+38521347333",
    "rating": 4,
    "ratingScore": 9.4,
    "ratingVolume": 200,
    "timezone": "Europe/Zagreb"
  },
  {
    "name": "Pizzeria Bar Renato",
    "city": "Split",
    "countryCode": "HRV",
    "address": "≈†etali≈°te Kalafata 2",
    "postCode": "21000",
    "latitude": 16.4584853,
    "longitude": 43.5009337,
    "woltUrl": "https://wolt.com/hr/hrv/split/restaurant/pizzeria-bar-renato",
    "website": "https://www.facebook.com/restoranpizzeriarenato/",
    "phone": "+38521571271",
    "rating": 4,
    "ratingScore": 9.4,
    "ratingVolume": 500,
    "timezone": "Europe/Zagreb"
  },
  {
    "name": "Bistro Topolino",
    "city": "Split",
    "countryCode": "HRV",
    "address": "Obala kneza Domagoja bb",
    "postCode": "21000",
    "latitude": 16.441797072492882,
    "longitude": 43.50646833386686,
    "woltUrl": "https://wolt.com/hr/hrv/split/restaurant/bistro-topolino",
    "website": "https://restaurant-topolino.com/",
    "phone": "+38521338464",
    "rating": 4,
    "ratingScore": 9.2,
    "ratingVolume": 200,
    "timezone": "Europe/Zagreb"
  },
  {
    "name": "Restoran Babilon",
    "city": "Split",
    "countryCode": "HRV",
    "address": "Ulica Georgea Washingtona 13",
    "postCode": "21000",
    "latitude": 16.4469827,
    "longitude": 43.5121459,
    "woltUrl": "https://wolt.com/hr/hrv/split/restaurant/restoran-babilon",
    "website": "https://restaurant-babilon.com.hr/",
    "phone": "+38521344777",
    "rating": 4,
    "ratingScore": 9,
    "ratingVolume": 500,
    "timezone": "Europe/Zagreb"
  },
  {
    "name": "Chicken Box",
    "city": "Split",
    "countryCode": "HRV",
    "address": "Ulica kralja Tomislava 3",
    "postCode": "21000",
    "latitude": 16.43791,
    "longitude": 43.5101292,
    "woltUrl": "https://wolt.com/hr/hrv/split/restaurant/chicken-box-st",
    "website": "https://wolt.com/en/hrv",
    "phone": "+38598403444",
    "rating": 4,
    "ratingScore": 9.2,
    "ratingVolume": 200,
    "timezone": "Europe/Zagreb"
  },
  {
    "name": "Basta Gourmet bar Split",
    "city": "Split",
    "countryCode": "HRV",
    "address": "Obala kneza Branimira 1/a",
    "postCode": "21000",
    "latitude": 16.4319829,
    "longitude": 43.506464,
    "woltUrl": "https://wolt.com/hr/hrv/split/restaurant/basta-gourmet-bar-split",
    "website": "http://basta.bar/zagreb/",
    "phone": "+385976619116",
    "rating": 4,
    "ratingScore": 9,
    "ratingVolume": 200,
    "timezone": "Europe/Zagreb"
  },
  {
    "name": "Restoran ≈†ug",
    "city": "Split",
    "countryCode": "HRV",
    "address": "Tolstojeva 1A",
    "postCode": "21000",
    "latitude": 16.443193,
    "longitude": 43.50968410000001,
    "woltUrl": "https://wolt.com/hr/hrv/split/restaurant/restoran-ug",
    "website": "https://sug.hr/",
    "phone": "+385994588994",
    "rating": 4,
    "ratingScore": 9.4,
    "ratingVolume": 100,
    "timezone": "Europe/Zagreb"
  },
  {
    "name": "UP cafe",
    "city": "Split",
    "countryCode": "HRV",
    "address": "Domovinskog rata 29A",
    "postCode": "21000",
    "latitude": 16.4453219,
    "longitude": 43.51679050000001,
    "woltUrl": "https://wolt.com/hr/hrv/split/restaurant/up-cafe",
    "website": "https://upcafe.hr/?lang=en",
    "phone": "+385916210500",
    "rating": 4,
    "ratingScore": 9.6,
    "ratingVolume": 500,
    "timezone": "Europe/Zagreb"
  },
  {
    "name": "Silk Street Food",
    "city": "Split",
    "countryCode": "HRV",
    "address": "Tonƒçiƒáeva ulica 4",
    "postCode": "21000",
    "latitude": 16.437071691694353,
    "longitude": 43.50989689345889,
    "woltUrl": "https://wolt.com/hr/hrv/split/restaurant/silk-food",
    "website": "https://web.facebook.com/silkstreetfood.split",
    "phone": "+38521548070",
    "rating": 4,
    "ratingScore": 9.4,
    "ratingVolume": 200,
    "timezone": "Europe/Zagreb"
  },
  {
    "name": "≈†katulica",
    "city": "Split",
    "countryCode": "HRV",
    "address": "Domovinskog Rata 12",
    "postCode": "21000",
    "latitude": 16.44389627955411,
    "longitude": 43.515059843391924,
    "woltUrl": "https://wolt.com/hr/hrv/split/restaurant/skatulica",
    "website": "https://wolt.com/hr/hrv",
    "phone": "+385915257439",
    "rating": 4,
    "ratingScore": 9.4,
    "ratingVolume": 500,
    "timezone": "Europe/Zagreb"
  },
  {
    "name": "Fast Food Lozo",
    "city": "Split",
    "countryCode": "HRV",
    "address": "Vukovarska ul. 48",
    "postCode": "21000",
    "latitude": 16.4500484,
    "longitude": 43.5107136,
    "woltUrl": "https://wolt.com/hr/hrv/split/restaurant/fast-food-lozo1",
    "website": "https://fastfoodlozo.com.hr/",
    "phone": "+38598286608",
    "rating": 3,
    "ratingScore": 9,
    "ratingVolume": 100,
    "timezone": "Europe/Zagreb"
  },
  {
    "name": "Makedonska Kuƒáa",
    "city": "Split",
    "countryCode": "HRV",
    "address": "Ulica Jurja Dobrile 1",
    "postCode": "21000",
    "latitude": 16.464161166890175,
    "longitude": 43.5086454504901,
    "woltUrl": "https://wolt.com/hr/hrv/split/restaurant/makedonska-kuca",
    "website": "https://www.facebook.com/makedonskakuca/",
    "phone": "+38521467760",
    "rating": 4,
    "ratingScore": 9.2,
    "ratingVolume": 500,
    "timezone": "Europe/Zagreb"
  },
  {
    "name": "Palaƒçinke.hr - Split",
    "city": "Split",
    "countryCode": "HRV",
    "address": "This is a virtual venue",
    "postCode": "21000",
    "latitude": 16.4649051,
    "longitude": 43.5131452,
    "woltUrl": "https://wolt.com/hr/hrv/split/restaurant/palainkehr-split",
    "website": "https://www.facebook.com/Cinkehr/",
    "phone": "+385912594444",
    "rating": 4,
    "ratingScore": 9.6,
    "ratingVolume": 500,
    "timezone": "Europe/Zagreb"
  },
  {
    "name": "Bota ≈†are oyster & sushi bar",
    "city": "Split",
    "countryCode": "HRV",
    "address": "Adamova 3",
    "postCode": "21000",
    "latitude": 16.4435148,
    "longitude": 43.5147118,
    "woltUrl": "https://wolt.com/hr/hrv/split/restaurant/mini-bota-sushi",
    "website": "https://www.bota-sare.hr/split",
    "phone": "+385911754481",
    "rating": 4,
    "ratingScore": 9.2,
    "ratingVolume": 100,
    "timezone": "Europe/Zagreb"
  },
  {
    "name": "Veg - Split",
    "city": "Split",
    "countryCode": "HRV",
    "address": "Poljana Tin Ujeviƒáa 5",
    "postCode": "21000",
    "latitude": 16.436356902122498,
    "longitude": 43.51124909007814,
    "woltUrl": "https://wolt.com/hr/hrv/split/restaurant/veg",
    "website": "https://wolt.com/",
    "phone": "+38521263163",
    "rating": 4,
    "ratingScore": 9.4,
    "ratingVolume": 200,
    "timezone": "Europe/Zagreb"
  },
  {
    "name": "Antique sushi bar",
    "city": "Split",
    "countryCode": "HRV",
    "address": "Obala Hrvatskog narodnog preporoda 6",
    "postCode": "21000",
    "latitude": 16.437037,
    "longitude": 43.5084115,
    "woltUrl": "https://wolt.com/hr/hrv/split/restaurant/antique-sushi-bar",
    "website": "https://www.instagram.com/antiquebar_sushi/?hl=en",
    "phone": "+385958845836",
    "rating": 4,
    "ratingScore": 9.8,
    "ratingVolume": 20,
    "timezone": "Europe/Zagreb"
  },
  {
    "name": "Siam Thaifood",
    "city": "Split",
    "countryCode": "HRV",
    "address": "Ulica kneza Domagoja 1 ",
    "postCode": "21000",
    "latitude": 16.4418168,
    "longitude": 43.5063634,
    "woltUrl": "https://wolt.com/hr/hrv/split/restaurant/siam-thaifood",
    "website": "https://www.facebook.com/thaifood.hr/",
    "phone": "+385913434347",
    "rating": 4,
    "ratingScore": 9.4,
    "ratingVolume": 100,
    "timezone": "Europe/Zagreb"
  },
  {
    "name": "Biberon sushi & bar",
    "city": "Split",
    "countryCode": "HRV",
    "address": "Put Firula 57",
    "postCode": "21000",
    "latitude": 16.4568768,
    "longitude": 43.501938,
    "woltUrl": "https://wolt.com/hr/hrv/split/restaurant/biberon-sushi-bar",
    "website": "http://biberon.hr/",
    "phone": "+38521280448",
    "rating": 4,
    "ratingScore": 9.4,
    "ratingVolume": 200,
    "timezone": "Europe/Zagreb"
  },
  {
    "name": "Konoba Dujkin  Dvor",
    "city": "Split",
    "countryCode": "HRV",
    "address": "Trumbiƒáeva obala 6",
    "postCode": "21000",
    "latitude": 16.43429696559906,
    "longitude": 43.50797710241705,
    "woltUrl": "https://wolt.com/hr/hrv/split/restaurant/konoba-dujkin-dvor",
    "website": "http://dujkindvor.com/",
    "phone": "+38521355364",
    "rating": 4,
    "ratingScore": 9.6,
    "ratingVolume": 50,
    "timezone": "Europe/Zagreb"
  },
  {
    "name": "Zalogajnica Calypso",
    "city": "Split",
    "countryCode": "HRV",
    "address": "Ruƒëera Bo≈°koviƒáa 27",
    "postCode": "10000",
    "latitude": 16.467736065387722,
    "longitude": 43.51000023105729,
    "woltUrl": "https://wolt.com/hr/hrv/split/restaurant/zalogajnica-calypso",
    "website": "http://www.calypso.hr/",
    "phone": "+38521470677",
    "rating": 4,
    "ratingScore": 9,
    "ratingVolume": 500,
    "timezone": "Europe/Zagreb"
  },
  {
    "name": "Mandrill's Barbarossa",
    "city": "Split",
    "countryCode": "HRV",
    "address": "≈†etaliste Petra Preradovica 2",
    "postCode": "21000",
    "latitude": 16.4485887,
    "longitude": 43.501947,
    "woltUrl": "https://wolt.com/hr/hrv/split/restaurant/barbarossa",
    "website": "https://wolt.com/en/hrv",
    "phone": "+385955211050",
    "rating": 4,
    "ratingScore": 9.4,
    "ratingVolume": 200,
    "timezone": "Europe/Zagreb"
  },
  {
    "name": "No. 11",
    "city": "Split",
    "countryCode": "HRV",
    "address": "Bihaƒáka 2b",
    "postCode": "21000",
    "latitude": 16.4420152,
    "longitude": 43.5125039,
    "woltUrl": "https://wolt.com/hr/hrv/split/restaurant/no-11",
    "website": "https://www.facebook.com/no.11split",
    "phone": "+38521240215",
    "rating": 4,
    "ratingScore": 9,
    "ratingVolume": 200,
    "timezone": "Europe/Zagreb"
  },
  {
    "name": "Pizzeria Galija Split",
    "city": "Split",
    "countryCode": "HRV",
    "address": "Tonƒçiƒáeva 12",
    "postCode": "21000",
    "latitude": 16.43657712345791,
    "longitude": 43.51004774368554,
    "woltUrl": "https://wolt.com/hr/hrv/split/restaurant/pizzeria-galija-split",
    "website": "https://www.pizzeriagalija.com/pocetna/",
    "phone": "+385 21 347 932",
    "rating": 4,
    "ratingScore": 9.4,
    "ratingVolume": 200,
    "timezone": "Europe/Zagreb"
  },
  {
    "name": "Frit de Split",
    "city": "Split",
    "countryCode": "HRV",
    "address": "Ujeviƒáeva poljana 1",
    "postCode": "21 000",
    "latitude": 16.4363597,
    "longitude": 43.5107897,
    "woltUrl": "https://wolt.com/hr/hrv/split/restaurant/frit-de-split",
    "website": "https://restaurantguru.com/Frit-de-Split-Split",
    "phone": "+38521264500",
    "rating": 4,
    "ratingScore": 9.2,
    "ratingVolume": 200,
    "timezone": "Europe/Zagreb"
  },
  {
    "name": "ST- spiza",
    "city": "Split",
    "countryCode": "HRV",
    "address": "Zrinsko Frankopanska 58",
    "postCode": "21000",
    "latitude": 16.43356204032898,
    "longitude": 43.522062882760586,
    "woltUrl": "https://wolt.com/hr/hrv/split/restaurant/st-spiza-pivnica-pizzeria",
    "website": "http://st-spiza.com/",
    "phone": "+38521380736",
    "rating": 4,
    "ratingScore": 9.2,
    "ratingVolume": 200,
    "timezone": "Europe/Zagreb"
  },
  {
    "name": "Opa! Tasty greek bites",
    "city": "Split",
    "countryCode": "HRV",
    "address": "Put brodarice 6",
    "postCode": "21000",
    "latitude": 16.446547278651554,
    "longitude": 43.520177861216425,
    "woltUrl": "https://wolt.com/hr/hrv/split/restaurant/opa-tasty-greek-bites",
    "website": "https://wolt.com/",
    "phone": "+385998800222",
    "rating": 3,
    "ratingScore": 8.8,
    "ratingVolume": 200,
    "timezone": "Europe/Zagreb"
  },
  {
    "name": "Burger King - Mall of Split",
    "city": "Split",
    "countryCode": "HRV",
    "address": "Ul. Josipa Joviƒáa 93",
    "postCode": "21000",
    "latitude": 16.483907103538513,
    "longitude": 43.5191299104533,
    "woltUrl": "https://wolt.com/hr/hrv/split/restaurant/burger-king-mall-of-split",
    "website": "https://www.burgerking.hr/",
    "phone": "+385952343442",
    "rating": 3,
    "ratingScore": 8.6,
    "ratingVolume": 500,
    "timezone": "Europe/Zagreb"
  },
  {
    "name": "SALT Gluten-Free pizzeria",
    "city": "Split",
    "countryCode": "HRV",
    "address": "Slaviƒáeva 45",
    "postCode": "21000",
    "latitude": 16.4401022,
    "longitude": 43.51218679999999,
    "woltUrl": "https://wolt.com/hr/hrv/split/restaurant/salt-gluten-free-pizzeria",
    "website": "https://www.facebook.com/salt.glutenfree/",
    "phone": "+385953322244",
    "rating": 4,
    "ratingScore": 9.2,
    "ratingVolume": 20,
    "timezone": "Europe/Zagreb"
  },
  {
    "name": "The Fat Boar",
    "city": "Split",
    "countryCode": "HRV",
    "address": "Matice Hrvatske 44",
    "postCode": "21000",
    "latitude": 16.4574967,
    "longitude": 43.5083806,
    "woltUrl": "https://wolt.com/hr/hrv/split/restaurant/the-fat-boar",
    "website": "https://thefatboar.net/",
    "phone": "+385976438548",
    "rating": 3,
    "ratingScore": 8.8,
    "ratingVolume": 200,
    "timezone": "Europe/Zagreb"
  },
  {
    "name": "El Telegrafo",
    "city": "Split",
    "countryCode": "HRV",
    "address": "Ul. Marina Dr≈æiƒáa 11",
    "postCode": "21000",
    "latitude": 16.4445595,
    "longitude": 43.5095141,
    "woltUrl": "https://wolt.com/hr/hrv/split/restaurant/el-telegrafo",
    "website": "https://www.instagram.com/el_telegrafo.split/",
    "phone": "+385955141102",
    "rating": 4,
    "ratingScore": 9.8,
    "ratingVolume": 100,
    "timezone": "Europe/Zagreb"
  },
  {
    "name": "Zora Bila by Sandra & Dane",
    "city": "Split",
    "countryCode": "HRV",
    "address": "≈†etali≈°te Petra Preradoviƒáa 2",
    "postCode": "21000",
    "latitude": 16.448895792755522,
    "longitude": 43.50173065699371,
    "woltUrl": "https://wolt.com/hr/hrv/split/restaurant/zora-bila-by-sandra-dane",
    "website": "https://www.facebook.com/ZoraBilabySandraiDane/?rf=567242903729347",
    "phone": "+38521782711",
    "rating": 4,
    "ratingScore": 9.6,
    "ratingVolume": 200,
    "timezone": "Europe/Zagreb"
  },
  {
    "name": "Fast food Brzi Gonzales",
    "city": "Split",
    "countryCode": "HRV",
    "address": "Velebitska ulica 129b",
    "postCode": "21000",
    "latitude": 16.4732016,
    "longitude": 43.51180309999999,
    "woltUrl": "https://wolt.com/hr/hrv/split/restaurant/fast-food-brzi-gonzales",
    "website": "https://web.facebook.com/brz.gonzale",
    "phone": "+38521532777",
    "rating": 3,
    "ratingScore": 8.2,
    "ratingVolume": 200,
    "timezone": "Europe/Zagreb"
  },
  {
    "name": "Borgo knedla bar",
    "city": "Split",
    "countryCode": "HRV",
    "address": "Domovinskog rata 21",
    "postCode": "21000",
    "latitude": 16.4428561,
    "longitude": 43.51401329999999,
    "woltUrl": "https://wolt.com/hr/hrv/split/restaurant/borgo-knedla-bar",
    "website": "https://www.facebook.com/borgoknedlabar/?ref=page_internal",
    "phone": "+385953586001",
    "rating": 4,
    "ratingScore": 9.4,
    "ratingVolume": 100,
    "timezone": "Europe/Zagreb"
  },
  {
    "name": "Soul",
    "city": "Split",
    "countryCode": "HRV",
    "address": "Livanjska 18",
    "postCode": "21000",
    "latitude": 16.4418985,
    "longitude": 43.5117054,
    "woltUrl": "https://wolt.com/hr/hrv/split/restaurant/soul-st",
    "website": "https://soulsplit.info/",
    "phone": "+385996721241",
    "rating": 4,
    "ratingScore": 9.4,
    "ratingVolume": 50,
    "timezone": "Europe/Zagreb"
  },
  {
    "name": "Para di ≈†oto",
    "city": "Split",
    "countryCode": "HRV",
    "address": "Ulica Andrije Buvine 2",
    "postCode": "21000",
    "latitude": 16.439182975209405,
    "longitude": 43.50839695913757,
    "woltUrl": "https://wolt.com/hr/hrv/split/restaurant/para-di-soto",
    "website": "https://paradisoto.hr",
    "phone": "+38521586777",
    "rating": 3,
    "ratingScore": 8,
    "ratingVolume": 50,
    "timezone": "Europe/Zagreb"
  },
  {
    "name": "Chicken Shack - Kokosinjac",
    "city": "Split",
    "countryCode": "HRV",
    "address": "Ulica Domovinskog rata 26",
    "postCode": "21000",
    "latitude": 16.4445292,
    "longitude": 43.5157116,
    "woltUrl": "https://wolt.com/hr/hrv/split/restaurant/chicken-shack-kokosinjac",
    "website": "https://wolt.com/hr/hrv/split",
    "phone": "+385953454177",
    "rating": 4,
    "ratingScore": 9,
    "ratingVolume": 100,
    "timezone": "Europe/Zagreb"
  },
  {
    "name": "Bokamorra Home",
    "city": "Split",
    "countryCode": "HRV",
    "address": "Trumbiƒáeva obala 16",
    "postCode": "21000",
    "latitude": 16.43259580551415,
    "longitude": 43.50694488337038,
    "woltUrl": "https://wolt.com/hr/hrv/split/restaurant/pizzeria-bokamorra",
    "website": "https://www.facebook.com/bokamorra/?ref=page_internal",
    "phone": "+385976696212",
    "rating": 3,
    "ratingScore": 9,
    "ratingVolume": 200,
    "timezone": "Europe/Zagreb"
  },
  {
    "name": "Mala Kavana",
    "city": "Split",
    "countryCode": "HRV",
    "address": "Ruƒëera Bo≈°koviƒáa 16A",
    "postCode": "21000",
    "latitude": 16.4661273,
    "longitude": 43.5072262,
    "woltUrl": "https://wolt.com/hr/hrv/split/restaurant/mala-kavanast",
    "website": "https://www.instagram.com/mala_kavanast/?hl=en",
    "phone": "+385993328812",
    "rating": 4,
    "ratingScore": 9,
    "ratingVolume": 500,
    "timezone": "Europe/Zagreb"
  },
  {
    "name": "Pizzeria Mirakul üöó",
    "city": "Split",
    "countryCode": "HRV",
    "address": "This is a virtual venue",
    "postCode": "21000",
    "latitude": 16.4557052,
    "longitude": 43.5105621,
    "woltUrl": "https://wolt.com/hr/hrv/split/restaurant/pizzeria-mirakul-sd",
    "website": "https://www.mirakul-pizza.com/",
    "phone": "+38521489025",
    "rating": 4,
    "ratingScore": 9,
    "ratingVolume": 50,
    "timezone": "Europe/Zagreb"
  },
  {
    "name": "TEAK food",
    "city": "Split",
    "countryCode": "HRV",
    "address": "Ulica majstora Jurja 11 ",
    "postCode": "21000",
    "latitude": 16.4401697,
    "longitude": 43.5092995,
    "woltUrl": "https://wolt.com/hr/hrv/split/restaurant/teak-food",
    "website": "https://wolt.com/en/hrv/split",
    "phone": "+38521782010",
    "timezone": "Europe/Zagreb"
  },
  {
    "name": "Green House Split",
    "city": "Split",
    "countryCode": "HRV",
    "address": "Poljiƒçka cesta 20b",
    "postCode": "21000",
    "latitude": 16.455825403425855,
    "longitude": 43.50462397403334,
    "woltUrl": "https://wolt.com/hr/hrv/split/restaurant/green-house-split",
    "website": "https://www.facebook.com/GreenHouseSplit/",
    "phone": "+38521277340",
    "rating": 3,
    "ratingScore": 9,
    "ratingVolume": 20,
    "timezone": "Europe/Zagreb"
  },
  {
    "name": "Feel Green",
    "city": "Split",
    "countryCode": "HRV",
    "address": "Ban Mladenova 3",
    "postCode": "21000",
    "latitude": 16.4348154,
    "longitude": 43.5087037,
    "woltUrl": "https://wolt.com/hr/hrv/split/restaurant/feel-green",
    "website": "https://wolt.com/?gclid=CjwKCAjwvMqDBhB8EiwA2iSmPOMyBXYewGQLeRYFG_G_W1-lFIfA6t2fOk9CabHEPzD_s20TKMXP8xoCSasQAvD_BwE",
    "phone": "+38521213784",
    "rating": 3,
    "ratingScore": 8.8,
    "ratingVolume": 100,
    "timezone": "Europe/Zagreb"
  },
  {
    "name": "Fast Food XXL",
    "city": "Split",
    "countryCode": "HRV",
    "address": "Dubrovaƒçka 61",
    "postCode": "21000",
    "latitude": 16.449619,
    "longitude": 43.5182588,
    "woltUrl": "https://wolt.com/hr/hrv/split/restaurant/fast-food-xxl",
    "website": "https://wolt.com/en/hrv",
    "phone": "+38521538330",
    "rating": 4,
    "ratingScore": 9.2,
    "ratingVolume": 20,
    "timezone": "Europe/Zagreb"
  },
  {
    "name": "Da'Mar by Marvie Hotel",
    "city": "Split",
    "countryCode": "HRV",
    "address": "Periƒçiƒáeva ulica 1",
    "postCode": "21000",
    "latitude": 16.4572161,
    "longitude": 43.5025784,
    "woltUrl": "https://wolt.com/hr/hrv/split/restaurant/damar-by-marvie-hotel",
    "website": "https://marviehotel.com/restaurant",
    "phone": "+38521279888",
    "rating": 4,
    "ratingScore": 9.2,
    "ratingVolume": 100,
    "timezone": "Europe/Zagreb"
  },
  {
    "name": "Fast food Ketchup",
    "city": "Split",
    "countryCode": "HRV",
    "address": "Vukovarska 148a",
    "postCode": "21000",
    "latitude": 16.4720573,
    "longitude": 43.5137729,
    "woltUrl": "https://wolt.com/hr/hrv/split/restaurant/fast-food-ketchup",
    "website": "https://hr-hr.facebook.com/pages/category/Fast-Food-Restaurant/Fast-Food-Ketchup-1353422161467919/",
    "phone": "+385 21 536 536",
    "rating": 4,
    "ratingScore": 9.2,
    "ratingVolume": 500,
    "timezone": "Europe/Zagreb"
  },
  {
    "name": "Konoba Barkarola",
    "city": "Split",
    "countryCode": "HRV",
    "address": "≈†etali≈°te Kalafata 2",
    "postCode": "21000",
    "latitude": 16.458328414736467,
    "longitude": 43.5009085973188,
    "woltUrl": "https://wolt.com/hr/hrv/split/restaurant/restaurant-barkarola",
    "website": "https://www.barkarola.hr/",
    "phone": "+385 21 611005 ",
    "rating": 3,
    "ratingScore": 9,
    "ratingVolume": 200,
    "timezone": "Europe/Zagreb"
  },
  {
    "name": "Restoran Maona",
    "city": "Split",
    "countryCode": "HRV",
    "address": "Marmontova 9",
    "postCode": "21000",
    "latitude": 16.4375141,
    "longitude": 43.5106465,
    "woltUrl": "https://wolt.com/hr/hrv/split/restaurant/restoran-maona",
    "website": "https://www.instagram.com/maonasplit/",
    "phone": "+385925015588",
    "timezone": "Europe/Zagreb"
  },
  {
    "name": "ƒÜevapi & Kebab Fontana",
    "city": "Split",
    "countryCode": "HRV",
    "address": "Ul. kralja Tomislava 3",
    "postCode": "21000",
    "latitude": 16.43791,
    "longitude": 43.5101292,
    "woltUrl": "https://wolt.com/hr/hrv/split/restaurant/evapi-kebab-fontana",
    "website": "https://balkan-kitchen-cevapi-kebab-fontana.business.site/",
    "phone": "+385955474434",
    "timezone": "Europe/Zagreb"
  },
  {
    "name": "SPLITSKA Coffee & Co. BY ZS",
    "city": "Split",
    "countryCode": "HRV",
    "address": "Ul. Domovinskog rata 61",
    "postCode": "21000",
    "latitude": 16.4501318,
    "longitude": 43.5200858,
    "woltUrl": "https://wolt.com/hr/hrv/split/restaurant/splitska-coffee-co-by-zrno-soli",
    "website": "https://splitska-coffee-co.business.site/",
    "phone": "+385916004862",
    "rating": 4,
    "ratingScore": 9.4,
    "ratingVolume": 100,
    "timezone": "Europe/Zagreb"
  },
  {
    "name": "A5it",
    "city": "Split",
    "countryCode": "HRV",
    "address": "Kralja Zvonimira 103",
    "postCode": "21000",
    "latitude": 16.4542616,
    "longitude": 43.5051242,
    "woltUrl": "https://wolt.com/hr/hrv/split/restaurant/a5it",
    "website": "https://wolt.com/en/hrv/split",
    "phone": "+385976365422",
    "rating": 4,
    "ratingScore": 9.4,
    "ratingVolume": 100,
    "timezone": "Europe/Zagreb"
  },
  {
    "name": "Fish Delish - Split",
    "city": "Split",
    "countryCode": "HRV",
    "address": "Trogirske ul 10",
    "postCode": " 21000",
    "latitude": 16.4374174,
    "longitude": 43.5096087,
    "woltUrl": "https://wolt.com/hr/hrv/split/restaurant/fish-delish-split",
    "website": "https://fish-delish.com/",
    "phone": "+38598264260",
    "rating": 4,
    "ratingScore": 9,
    "ratingVolume": 200,
    "timezone": "Europe/Zagreb"
  },
  {
    "name": "Bistro Biberon KBC",
    "city": "Split",
    "countryCode": "HRV",
    "address": "Spinƒçiƒáeva 1",
    "postCode": "21000",
    "latitude": 16.4579596,
    "longitude": 43.5037592,
    "woltUrl": "https://wolt.com/hr/hrv/split/restaurant/bistro-biberon-kbc",
    "website": "http://biberon.hr/o-biberonu/",
    "phone": "+38598370542",
    "rating": 3,
    "ratingScore": 8.8,
    "ratingVolume": 100,
    "timezone": "Europe/Zagreb"
  },
  {
    "name": "MakaMaka Acai & Poke bar",
    "city": "Split",
    "countryCode": "HRV",
    "address": "Obrov ulica 5",
    "postCode": "21000",
    "latitude": 16.4374803,
    "longitude": 43.5091133,
    "woltUrl": "https://wolt.com/hr/hrv/split/restaurant/makamaka-acaipoke-bar",
    "website": "https://makamaka-acaipoke-bar.business.site/#summary",
    "phone": "+385993936960",
    "rating": 4,
    "ratingScore": 9.4,
    "ratingVolume": 500,
    "timezone": "Europe/Zagreb"
  },
  {
    "name": "Bava Split Caffe & Restaurant",
    "city": "Split",
    "countryCode": "HRV",
    "address": "Svaƒçiƒáeva ul. 18",
    "postCode": "21000",
    "latitude": 16.4379221,
    "longitude": 43.5132051,
    "woltUrl": "https://wolt.com/hr/hrv/split/restaurant/bava-split-caffe-restaurant1",
    "website": "https://www.instagram.com/bava_split/",
    "phone": "+385951963306",
    "rating": 3,
    "ratingScore": 8.8,
    "ratingVolume": 10,
    "timezone": "Europe/Zagreb"
  },
  {
    "name": "Luigi's sandwich bar",
    "city": "Split",
    "countryCode": "HRV",
    "address": "Josipa Joviƒáa 93",
    "postCode": "21000",
    "latitude": 16.4832863,
    "longitude": 43.5185638,
    "woltUrl": "https://wolt.com/hr/hrv/split/restaurant/luigis-sandwich-bar",
    "website": "https://wolt.com/",
    "phone": "+385976380255",
    "rating": 4,
    "ratingScore": 9.6,
    "ratingVolume": 500,
    "timezone": "Europe/Zagreb"
  },
  {
    "name": "The Square Pizza Society",
    "city": "Split",
    "countryCode": "HRV",
    "address": "Zadarska Ulica 2",
    "postCode": "21000",
    "latitude": 16.4378718,
    "longitude": 43.5088494,
    "woltUrl": "https://wolt.com/hr/hrv/split/restaurant/the-square-pizza-society",
    "website": "https://www.instagram.com/thesquarepizzasociety/",
    "phone": "+38521260870",
    "rating": 3,
    "ratingScore": 9,
    "ratingVolume": 200,
    "timezone": "Europe/Zagreb"
  },
  {
    "name": "Morfar",
    "city": "Split",
    "countryCode": "HRV",
    "address": "Porinova 4",
    "postCode": "21000",
    "latitude": 16.4370311,
    "longitude": 43.5112296,
    "woltUrl": "https://wolt.com/hr/hrv/split/restaurant/morfar",
    "website": "https://wolt.com/hr",
    "phone": "+385995030041",
    "rating": 4,
    "ratingScore": 9.8,
    "ratingVolume": 100,
    "timezone": "Europe/Zagreb"
  },
  {
    "name": "M&N Food",
    "city": "Split",
    "countryCode": "HRV",
    "address": "Dubrovaƒçka ulica 65",
    "postCode": "21000",
    "latitude": 16.4495452,
    "longitude": 43.5187581,
    "woltUrl": "https://wolt.com/hr/hrv/split/restaurant/mn-food",
    "website": "https://wolt.com/hr/hrv/split",
    "phone": "+385958367147",
    "rating": 4,
    "ratingScore": 9.2,
    "ratingVolume": 50,
    "timezone": "Europe/Zagreb"
  },
  {
    "name": "Donut Nikanto",
    "city": "Split",
    "countryCode": "HRV",
    "address": "Domovinskog rata 27a",
    "postCode": "21000",
    "latitude": 16.4449149,
    "longitude": 43.5164724,
    "woltUrl": "https://wolt.com/hr/hrv/split/restaurant/donut-nikanto",
    "website": "https://wolt.com/hr/hrv",
    "phone": "+385912001359",
    "rating": 4,
    "ratingScore": 9.6,
    "ratingVolume": 200,
    "timezone": "Europe/Zagreb"
  },
  {
    "name": "Salt Gluten-Free sandwich and grill",
    "city": "Split",
    "countryCode": "HRV",
    "address": "Sinjska ul. 7A",
    "postCode": "21000",
    "latitude": 16.4398027,
    "longitude": 43.5108972,
    "woltUrl": "https://wolt.com/hr/hrv/split/restaurant/salt-gluten-free-house",
    "website": "https://web.facebook.com/salt.glutenfree/?_rdc=1&_rdr",
    "phone": "+385953322244",
    "rating": 3,
    "ratingScore": 7.8,
    "ratingVolume": 20,
    "timezone": "Europe/Zagreb"
  },
  {
    "name": "Bakina Kuhinja",
    "city": "Split",
    "countryCode": "HRV",
    "address": "This is a virtual venue",
    "postCode": "21000",
    "latitude": 16.4780871,
    "longitude": 43.50953,
    "woltUrl": "https://wolt.com/hr/hrv/split/restaurant/bakina-kuhinja",
    "website": "https://www.facebook.com/permalink.php?id=1278145115534119&story_fbid=3422793101069299",
    "phone": "+385913131340",
    "rating": 4,
    "ratingScore": 9.4,
    "ratingVolume": 200,
    "timezone": "Europe/Zagreb"
  },
  {
    "name": "Pizzeria Kaleta",
    "city": "Split",
    "countryCode": "HRV",
    "address": "Ul. Zrinsko Frankopanska 9",
    "postCode": "21000",
    "latitude": 16.4362527,
    "longitude": 43.5114726,
    "woltUrl": "https://wolt.com/hr/hrv/split/restaurant/pizzeria-kaleta",
    "website": "https://www.pizzeriakaleta.com.hr/",
    "phone": "+38521360378",
    "rating": 3,
    "ratingScore": 8.8,
    "ratingVolume": 500,
    "timezone": "Europe/Zagreb"
  },
  {
    "name": "Hashtag Food Bar",
    "city": "Split",
    "countryCode": "HRV",
    "address": "Domovinskog rata 5",
    "postCode": "21000",
    "latitude": 16.442418694496155,
    "longitude": 43.51309236217725,
    "woltUrl": "https://wolt.com/hr/hrv/split/restaurant/hashtag-food-bar",
    "website": "https://www.facebook.com/hashtagbar.now/",
    "phone": "+38521236190",
    "rating": 4,
    "ratingScore": 9.2,
    "ratingVolume": 100,
    "timezone": "Europe/Zagreb"
  },
  {
    "name": "Morski ƒåovik",
    "city": "Split",
    "countryCode": "HRV",
    "address": " Kri≈æine 3",
    "postCode": "21000",
    "latitude": 16.4759411,
    "longitude": 43.5074399,
    "woltUrl": "https://wolt.com/hr/hrv/split/restaurant/morski-covik",
    "website": "https://www.facebook.com/mijichb?_rdc=1&_rdr",
    "phone": "+385994544265",
    "rating": 3,
    "ratingScore": 8.4,
    "ratingVolume": 100,
    "timezone": "Europe/Zagreb"
  },
  {
    "name": "Kod Pjera",
    "city": "Split",
    "countryCode": "HRV",
    "address": "≈†oltanska 32",
    "postCode": "21000",
    "latitude": 16.460515,
    "longitude": 43.5052957,
    "woltUrl": "https://wolt.com/hr/hrv/split/restaurant/kod-pjera",
    "website": "https://wolt.com/hr/hrv/split",
    "phone": "+38521402022",
    "rating": 4,
    "ratingScore": 9.4,
    "ratingVolume": 10,
    "timezone": "Europe/Zagreb"
  },
  {
    "name": "Oakberry Acai Bowls",
    "city": "Split",
    "countryCode": "HRV",
    "address": "Mato≈°iƒáa ulica 12",
    "postCode": "21000",
    "latitude": 16.436587399706983,
    "longitude": 43.51067640509969,
    "woltUrl": "https://wolt.com/hr/hrv/split/restaurant/oakberry-acai-bowls",
    "website": "https://oakberry.com/en/",
    "phone": "+385916010386",
    "rating": 3,
    "ratingScore": 9,
    "ratingVolume": 50,
    "timezone": "Europe/Zagreb"
  },
  {
    "name": "Corto Maltese by Professor Thrill",
    "city": "Split",
    "countryCode": "HRV",
    "address": "Obrov ul. 9",
    "postCode": "21000 ",
    "latitude": 16.4375138,
    "longitude": 43.5094284,
    "woltUrl": "https://wolt.com/hr/hrv/split/restaurant/corto-maltese-by-professor-thrill",
    "website": "https://www.facebook.com/corto.maltese.freestylefood/",
    "phone": "+385958021322",
    "rating": 3,
    "ratingScore": 8.8,
    "ratingVolume": 10,
    "timezone": "Europe/Zagreb"
  },
  {
    "name": "Chinawok",
    "city": "Split",
    "countryCode": "HRV",
    "address": "Josipa Joviƒáa 93",
    "postCode": "21000",
    "latitude": 16.48353137854744,
    "longitude": 43.51893290762325,
    "woltUrl": "https://wolt.com/hr/hrv/split/restaurant/chinawok",
    "website": "https://www.facebook.com/pages/Chinawok/325047938183130",
    "phone": "+38591 723 3115",
    "rating": 4,
    "ratingScore": 9.4,
    "ratingVolume": 500,
    "timezone": "Europe/Zagreb"
  },
  {
    "name": "Silk Sushi",
    "city": "Split",
    "countryCode": "HRV",
    "address": "Tonƒçiƒáeva ulica 2",
    "postCode": "21000",
    "latitude": 16.4371141,
    "longitude": 43.5099139,
    "woltUrl": "https://wolt.com/hr/hrv/split/restaurant/silk-sushi",
    "website": "https://www.facebook.com/silkstreetfood/",
    "phone": "+38521548070",
    "rating": 4,
    "ratingScore": 9,
    "ratingVolume": 10,
    "timezone": "Europe/Zagreb"
  },
  {
    "name": "Bistro Toƒá",
    "city": "Split",
    "countryCode": "HRV",
    "address": "≈†egviƒáa 1",
    "postCode": "21000",
    "latitude": 16.44394487142563,
    "longitude": 43.506109538868145,
    "woltUrl": "https://wolt.com/hr/hrv/split/restaurant/bistro-toc",
    "website": "http://bistrotoc.com/o-nama-2/",
    "phone": "+38521488409",
    "rating": 4,
    "ratingScore": 9.4,
    "ratingVolume": 100,
    "timezone": "Europe/Zagreb"
  },
  {
    "name": "Meet & Eat",
    "city": "Split",
    "countryCode": "HRV",
    "address": "Ulica Ruƒëera Bo≈°koviƒáa 13",
    "postCode": "21000",
    "latitude": 16.4668838,
    "longitude": 43.5077278,
    "woltUrl": "https://wolt.com/hr/hrv/split/restaurant/meet-eatst",
    "website": "https://wolt.com/hr/hrv/split",
    "phone": "+385914442241",
    "rating": 4,
    "ratingScore": 9.2,
    "ratingVolume": 100,
    "timezone": "Europe/Zagreb"
  },
  {
    "name": "Verde Gelato",
    "city": "Split",
    "countryCode": "HRV",
    "address": "Trogirska 10",
    "postCode": "21000",
    "latitude": 16.4374174,
    "longitude": 43.5096087,
    "woltUrl": "https://wolt.com/hr/hrv/split/restaurant/verde-gelato",
    "website": "https://wolt.com/hr/hrv/split",
    "phone": "+385989964474",
    "rating": 4,
    "ratingScore": 9.6,
    "ratingVolume": 100,
    "timezone": "Europe/Zagreb"
  },
  {
    "name": "Fast Food Garfild",
    "city": "Split",
    "countryCode": "HRV",
    "address": "Sarajevska ul. 30A",
    "postCode": "21000",
    "latitude": 16.4737963,
    "longitude": 43.5217157,
    "woltUrl": "https://wolt.com/hr/hrv/split/restaurant/fast-food-garfild",
    "website": "https://wolt.com/en/hrv",
    "phone": "+38521509609",
    "rating": 3,
    "ratingScore": 8.8,
    "ratingVolume": 200,
    "timezone": "Europe/Zagreb"
  },
  {
    "name": "Pizzeria Bepina",
    "city": "Split",
    "countryCode": "HRV",
    "address": " Makarska ul. 16",
    "postCode": "21000",
    "latitude": 16.4876382,
    "longitude": 43.5064199,
    "woltUrl": "https://wolt.com/hr/hrv/split/restaurant/pizzeria-bepina",
    "website": "https://www.facebook.com/pages/Pizzeria%20Bepina/290478617766041/",
    "phone": "+38521476476",
    "rating": 4,
    "ratingScore": 9.2,
    "ratingVolume": 200,
    "timezone": "Europe/Zagreb"
  },
  {
    "name": "MakaMaka Sushi Bar",
    "city": "Split",
    "countryCode": "HRV",
    "address": "This is a virtual venue",
    "postCode": "21000",
    "latitude": 16.4363432,
    "longitude": 43.5098959,
    "woltUrl": "https://wolt.com/hr/hrv/split/restaurant/makamaka-sushi",
    "website": "https://wolt.com/en/hrv/split/restaurant/makamaka-acaipoke-bar",
    "phone": "+385993936960",
    "rating": 4,
    "ratingScore": 9.6,
    "ratingVolume": 100,
    "timezone": "Europe/Zagreb"
  },
  {
    "name": "Biberon Food Bar - Mall of Split",
    "city": "Split",
    "countryCode": "HRV",
    "address": "Josipa Joviƒáa 93",
    "postCode": "21000",
    "latitude": 16.48372870253766,
    "longitude": 43.51914430832851,
    "woltUrl": "https://wolt.com/hr/hrv/split/restaurant/biberon-food-bar---mall-of-split",
    "website": "http://biberon.hr/",
    "phone": "+38591 461 4681",
    "rating": 3,
    "ratingScore": 9,
    "ratingVolume": 200,
    "timezone": "Europe/Zagreb"
  },
  {
    "name": "Marinade",
    "city": "Split",
    "countryCode": "HRV",
    "address": "≈†oltanska 10",
    "postCode": "21000",
    "latitude": 16.4630875,
    "longitude": 43.5057434,
    "woltUrl": "https://wolt.com/hr/hrv/split/restaurant/marinadee",
    "website": "https://marinade.choiceqr.com/",
    "phone": "+385953878678",
    "rating": 3,
    "ratingScore": 8.8,
    "ratingVolume": 100,
    "timezone": "Europe/Zagreb"
  },
  {
    "name": "Downtown Grill",
    "city": "Split",
    "countryCode": "HRV",
    "address": "Zrinsko Frankopanska 15a",
    "postCode": "21000",
    "latitude": 16.4361012,
    "longitude": 43.511754,
    "woltUrl": "https://wolt.com/hr/hrv/split/restaurant/downtown-grill",
    "website": "https://www.facebook.com/pages/Down-Town-Grill/334078180838492",
    "phone": "+385977318678",
    "rating": 3,
    "ratingScore": 9,
    "ratingVolume": 20,
    "timezone": "Europe/Zagreb"
  },
  {
    "name": "ƒÜiri Biri Bela Restaurant",
    "city": "Split",
    "countryCode": "HRV",
    "address": "Plinarska ul. 6",
    "postCode": "21000",
    "latitude": 16.4359517,
    "longitude": 43.5110712,
    "woltUrl": "https://wolt.com/hr/hrv/split/restaurant/ciri-biri-bela-restaurant",
    "website": "https://ciri-biri-bela.com/en",
    "phone": "+385957984963",
    "rating": 4,
    "ratingScore": 9.2,
    "ratingVolume": 20,
    "timezone": "Europe/Zagreb"
  },
  {
    "name": "Capitano pizza & burger food",
    "city": "Split",
    "countryCode": "HRV",
    "address": "Put Brodarice 4",
    "postCode": "21000",
    "latitude": 16.446723312834767,
    "longitude": 43.518916141218185,
    "woltUrl": "https://wolt.com/hr/hrv/split/restaurant/capitano",
    "website": "https://www.facebook.com/CapitanopubSplit",
    "phone": "+385921869818",
    "rating": 3,
    "ratingScore": 8.2,
    "ratingVolume": 200,
    "timezone": "Europe/Zagreb"
  },
  {
    "name": "Burger Boy",
    "city": "Split",
    "countryCode": "HRV",
    "address": "Hrvojeva 10",
    "postCode": "21000",
    "latitude": 16.4416684,
    "longitude": 43.5085173,
    "woltUrl": "https://wolt.com/hr/hrv/split/restaurant/the-daltonist",
    "website": "https://www.facebook.com/TheDaltonistCraftBar",
    "phone": "+385977077531",
    "rating": 3,
    "ratingScore": 9,
    "ratingVolume": 10,
    "timezone": "Europe/Zagreb"
  },
  {
    "name": "Juve i kruvovi",
    "city": "Split",
    "countryCode": "HRV",
    "address": "Ruƒëera Bo≈°koviƒáa 16A",
    "postCode": "21000",
    "latitude": 16.466207214535928,
    "longitude": 43.50633026358942,
    "woltUrl": "https://wolt.com/hr/hrv/split/restaurant/juve-i-kruvovi",
    "website": "https://wolt.com/",
    "phone": "+38598555826",
    "rating": 4,
    "ratingScore": 9.6,
    "ratingVolume": 100,
    "timezone": "Europe/Zagreb"
  },
  {
    "name": "Sanctuary Cantina",
    "city": "Split",
    "countryCode": "HRV",
    "address": "Poljana Stare Gimnazije",
    "postCode": "21000",
    "latitude": 16.4389384,
    "longitude": 43.5094751,
    "woltUrl": "https://wolt.com/hr/hrv/split/restaurant/sanctuary-cantina",
    "website": "https://wolt.com/en/discovery",
    "phone": "+385919061574",
    "rating": 3,
    "ratingScore": 8.6,
    "ratingVolume": 10,
    "timezone": "Europe/Zagreb"
  },
  {
    "name": "Fancy Fries",
    "city": "Split",
    "countryCode": "HRV",
    "address": "Ulica Petra Iliƒça ƒåajkovskog 5",
    "postCode": "21000",
    "latitude": 16.4366473,
    "longitude": 43.5119728,
    "woltUrl": "https://wolt.com/hr/hrv/split/restaurant/fancy-fries",
    "website": "http://wolt.com/",
    "phone": "+385993664617",
    "rating": 3,
    "ratingScore": 8.4,
    "ratingVolume": 20,
    "timezone": "Europe/Zagreb"
  },
  {
    "name": "Pinsa Romana",
    "city": "Split",
    "countryCode": "HRV",
    "address": "Obrov ulica 2",
    "postCode": "21000",
    "latitude": 16.4375875,
    "longitude": 43.5091361,
    "woltUrl": "https://wolt.com/hr/hrv/split/restaurant/pinsa-romana",
    "website": "https://wolt.com",
    "phone": "+38521569292",
    "rating": 2,
    "ratingScore": 6,
    "ratingVolume": 20,
    "timezone": "Europe/Zagreb"
  },
  {
    "name": "Freshbox",
    "city": "Split",
    "countryCode": "HRV",
    "address": "Ul. Stari pazar 5A",
    "postCode": "21000",
    "latitude": 16.4420825,
    "longitude": 43.5076142,
    "woltUrl": "https://wolt.com/hr/hrv/split/restaurant/freshboxst",
    "website": "https://www.instagram.com/go_freshbox/?hl=en",
    "phone": "+385953969343",
    "rating": 3,
    "ratingScore": 8.8,
    "ratingVolume": 50,
    "timezone": "Europe/Zagreb"
  },
  {
    "name": "@Noon",
    "city": "Split",
    "countryCode": "HRV",
    "address": "Ul. Frane Buliƒáa 2",
    "postCode": "21000 ",
    "latitude": 16.4408402,
    "longitude": 43.5078338,
    "woltUrl": "https://wolt.com/hr/hrv/split/restaurant/noon-st",
    "website": "https://wolt.com/en/hrv",
    "phone": "+385989268268",
    "rating": 3,
    "ratingScore": 8.2,
    "ratingVolume": 10,
    "timezone": "Europe/Zagreb"
  },
  {
    "name": "Konoba Stare Grede",
    "city": "Split",
    "countryCode": "HRV",
    "address": "Domovinskog rata 46",
    "postCode": "21000",
    "latitude": 16.4456394,
    "longitude": 43.5165724,
    "woltUrl": "https://wolt.com/hr/hrv/split/restaurant/konoba-stare-grede",
    "website": "https://www.facebook.com/Konoba-Stare-Grede-152871568202171/",
    "phone": "+38521643901",
    "rating": 4,
    "ratingScore": 9.6,
    "ratingVolume": 50,
    "timezone": "Europe/Zagreb"
  },
  {
    "name": "Buffet konoba Split Inn",
    "city": "Split",
    "countryCode": "HRV",
    "address": "Popoviƒáa 2",
    "postCode": "21000",
    "latitude": 16.4358251,
    "longitude": 43.5097443,
    "woltUrl": "https://wolt.com/hr/hrv/split/restaurant/buffet-konoba-split-inn",
    "website": "https://business.facebook.com/SplitInn/?ref=py_c",
    "phone": "+385993152771",
    "rating": 2,
    "ratingScore": 7,
    "ratingVolume": 10,
    "timezone": "Europe/Zagreb"
  },
  {
    "name": "Pizza Alpha",
    "city": "Split",
    "countryCode": "HRV",
    "address": "Ulica Ivana Gunduliƒáa 32",
    "postCode": "21000",
    "latitude": 16.4398645,
    "longitude": 43.5138915,
    "woltUrl": "https://wolt.com/hr/hrv/split/restaurant/pizzeria-alpha",
    "website": "https://wolt.com/",
    "phone": "+385994588007",
    "rating": 3,
    "ratingScore": 7.4,
    "ratingVolume": 50,
    "timezone": "Europe/Zagreb"
  },
  {
    "name": "Restoran ≈†torija",
    "city": "Split",
    "countryCode": "HRV",
    "address": "Obala Hrvatskog narodnog preporoda 15",
    "postCode": "21000",
    "latitude": 16.4389389,
    "longitude": 43.5077753,
    "woltUrl": "https://wolt.com/hr/hrv/split/restaurant/restoran-storijaa",
    "website": "https://www.facebook.com/storija.split/",
    "phone": "+385 99 300 0303",
    "rating": 3,
    "ratingScore": 8.4,
    "ratingVolume": 20,
    "timezone": "Europe/Zagreb"
  },
  {
    "name": "Sexy Cow",
    "city": "Split",
    "countryCode": "HRV",
    "address": "Zrinsko Frankopanska 6",
    "postCode": "21000",
    "latitude": 16.43621474504471,
    "longitude": 43.512614635318414,
    "woltUrl": "https://wolt.com/hr/hrv/split/restaurant/sexy-cow",
    "website": "http://sexy-cow.com/",
    "phone": "+38521780782",
    "rating": 4,
    "ratingScore": 9,
    "ratingVolume": 100,
    "timezone": "Europe/Zagreb"
  },
  {
    "name": "Porto Kebab and Barbecue",
    "city": "Split",
    "countryCode": "HRV",
    "address": "Obala kneza Domagoja Pothodnik",
    "postCode": "21000",
    "latitude": 16.4419802544924,
    "longitude": 43.506372863751196,
    "woltUrl": "https://wolt.com/hr/hrv/split/restaurant/porto-kebab-and-barbecue",
    "website": "https://wolt.com",
    "phone": "+385955301522",
    "rating": 3,
    "ratingScore": 8.2,
    "ratingVolume": 10,
    "timezone": "Europe/Zagreb"
  },
  {
    "name": "Momo‚Äôs - Asian Multi Kitchen",
    "city": "Split",
    "countryCode": "HRV",
    "address": "Poljiƒçka cesta 71",
    "postCode": "21000",
    "latitude": 16.4787902,
    "longitude": 43.5104965,
    "woltUrl": "https://wolt.com/hr/hrv/split/restaurant/momos-asian-multi-kitchen",
    "website": "https://www.momos.com.hr/",
    "phone": "+385915315088",
    "rating": 3,
    "ratingScore": 8,
    "ratingVolume": 100,
    "timezone": "Europe/Zagreb"
  },
  {
    "name": "ALPHA Palaƒçinke",
    "city": "Split",
    "countryCode": "HRV",
    "address": "This is a virtual venue",
    "postCode": "21000",
    "latitude": 16.4398645,
    "longitude": 43.5138915,
    "woltUrl": "https://wolt.com/hr/hrv/split/restaurant/palacinke-alpha",
    "website": "https://wolt.com",
    "phone": "+385994588007",
    "rating": 4,
    "ratingScore": 9.2,
    "ratingVolume": 100,
    "timezone": "Europe/Zagreb"
  },
  {
    "name": "Fala Mama",
    "city": "Split",
    "countryCode": "HRV",
    "address": "Ulica Slobode 2B",
    "postCode": "21000",
    "latitude": 16.4485356,
    "longitude": 43.5065807,
    "woltUrl": "https://wolt.com/hr/hrv/split/restaurant/fala-mama",
    "website": "https://wolt.com/hr/discovery",
    "phone": "+385993268727",
    "rating": 3,
    "ratingScore": 8.4,
    "ratingVolume": 20,
    "timezone": "Europe/Zagreb"
  },
  {
    "name": "Kitchen and bar Radar",
    "city": "Split",
    "countryCode": "HRV",
    "address": "Obala kneza Domagoja 1",
    "postCode": "21000",
    "latitude": 16.4418568,
    "longitude": 43.5063451,
    "woltUrl": "https://wolt.com/hr/hrv/split/restaurant/kitchen-and-bar-radar",
    "website": "https://wolt.com/hr/hrv/split",
    "phone": "+385916079207",
    "timezone": "Europe/Zagreb"
  },
  {
    "name": "Sushi Corner a la Carte",
    "city": "Split",
    "countryCode": "HRV",
    "address": "Poljiƒçka cesta 71",
    "postCode": "21000",
    "latitude": 16.4799979,
    "longitude": 43.51085339999999,
    "woltUrl": "https://wolt.com/hr/hrv/split/restaurant/sushi-corner-a-la-carte",
    "website": "https://www.sushicorneralacarte.com.hr/en",
    "phone": "+385955583014",
    "rating": 3,
    "ratingScore": 9,
    "ratingVolume": 100,
    "timezone": "Europe/Zagreb"
  },
  {
    "name": "Daddy Cool ",
    "city": "Split",
    "countryCode": "HRV",
    "address": "Zrinsko Frankopanska 6",
    "postCode": "21000",
    "latitude": 16.436228332462303,
    "longitude": 43.51264875724794,
    "woltUrl": "https://wolt.com/hr/hrv/split/restaurant/daddy-cool",
    "website": "https://daddy-cool.business.site/?utm_source=gmb&utm_medium=referral#posts",
    "phone": "+385912555522",
    "rating": 4,
    "ratingScore": 9.2,
    "ratingVolume": 100,
    "timezone": "Europe/Zagreb"
  },
  {
    "name": "Mr. Pozzetti",
    "city": "Split",
    "countryCode": "HRV",
    "address": "Maruliƒáeva ulica 1",
    "postCode": "21000",
    "latitude": 16.4388499,
    "longitude": 43.5083456,
    "woltUrl": "https://wolt.com/hr/hrv/split/restaurant/mr-pozzetti",
    "website": "https://wolt.com/hr/hrv/split",
    "phone": "+38598264260",
    "rating": 4,
    "ratingScore": 9.8,
    "ratingVolume": 50,
    "timezone": "Europe/Zagreb"
  },
  {
    "name": "A'E kitchen & wine bar",
    "city": "Split",
    "countryCode": "HRV",
    "address": "Kuzmaniƒáeva 13",
    "postCode": "21000",
    "latitude": 16.4461692,
    "longitude": 43.5066475,
    "woltUrl": "https://wolt.com/hr/hrv/split/restaurant/ae-kitchen-wine-bar",
    "website": "https://wine-bar-ae.eatbu.hr/?lang=hr",
    "phone": "+385989067595",
    "rating": 3,
    "ratingScore": 8.8,
    "ratingVolume": 10,
    "timezone": "Europe/Zagreb"
  },
  {
    "name": "Marendin food",
    "city": "Split",
    "countryCode": "HRV",
    "address": "Hostel Dujam, Velebitska 27",
    "postCode": "21000",
    "latitude": 16.4509322,
    "longitude": 43.5158609,
    "woltUrl": "https://wolt.com/hr/hrv/split/restaurant/marendin-food",
    "website": "https://www.facebook.com/marendinfood/?ref=page_internal",
    "phone": "+385994703047",
    "rating": 3,
    "ratingScore": 9,
    "ratingVolume": 20,
    "timezone": "Europe/Zagreb"
  },
  {
    "name": "Top Street Food",
    "city": "Split",
    "countryCode": "HRV",
    "address": "Papandopulova 11",
    "postCode": "21000",
    "latitude": 16.472973,
    "longitude": 43.5076907,
    "woltUrl": "https://wolt.com/hr/hrv/split/restaurant/top-street-food",
    "website": "https://www.facebook.com/p/TOP-street-food-100083084629641/",
    "phone": "+38595288323",
    "timezone": "Europe/Zagreb"
  },
  {
    "name": "Papa's American bar - Split",
    "city": "Split",
    "countryCode": "HRV",
    "address": "Uvala Baƒçvice bb",
    "postCode": "21000",
    "latitude": 16.44854485988617,
    "longitude": 43.50184037070427,
    "woltUrl": "https://wolt.com/hr/hrv/split/restaurant/papas-american-bar-split",
    "website": "https://www.facebook.com/PapasSplit/",
    "phone": "+385989357063",
    "rating": 3,
    "ratingScore": 8.8,
    "ratingVolume": 50,
    "timezone": "Europe/Zagreb"
  },
  {
    "name": "TIN food & wine",
    "city": "Split",
    "countryCode": "HRV",
    "address": "Josipa Joviƒáa 93, Mall of Split",
    "postCode": "21000",
    "latitude": 16.483338475227356,
    "longitude": 43.518538630862906,
    "woltUrl": "https://wolt.com/hr/hrv/split/restaurant/tin-food-wine",
    "website": "https://www.facebook.com/pg/TINfoodandwine/",
    "phone": "+38521314063",
    "rating": 4,
    "ratingScore": 9.2,
    "ratingVolume": 100,
    "timezone": "Europe/Zagreb"
  },
  {
    "name": "Ciprianis Food",
    "city": "Split",
    "countryCode": "HRV",
    "address": "Ulica Josipa Joviƒáa 93",
    "postCode": "21000",
    "latitude": 16.4832863,
    "longitude": 43.5185638,
    "woltUrl": "https://wolt.com/hr/hrv/split/restaurant/ciprianis-food",
    "website": "https://restaurantguru.com/Crepelicius-Split",
    "phone": "+385992345648",
    "rating": 4,
    "ratingScore": 9.4,
    "ratingVolume": 200,
    "timezone": "Europe/Zagreb"
  },
  {
    "name": "Pizza Bar Terina",
    "city": "Split",
    "countryCode": "HRV",
    "address": "Ulica Matice Hrvatske 12",
    "postCode": "21000",
    "latitude": 16.4532514,
    "longitude": 43.5079942,
    "woltUrl": "https://wolt.com/hr/hrv/split/restaurant/pizza-bar-terina",
    "website": "https://wolt.com/en/hrv",
    "phone": "+38598764267",
    "rating": 3,
    "ratingScore": 8.8,
    "ratingVolume": 20,
    "timezone": "Europe/Zagreb"
  },
  {
    "name": "≈†nicel House Picigin",
    "city": "Split",
    "countryCode": "HRV",
    "address": "≈†etali≈°te Petra Preradoviƒáa 2",
    "postCode": "21000",
    "latitude": 16.4485887,
    "longitude": 43.501947,
    "woltUrl": "https://wolt.com/hr/hrv/split/restaurant/snicel-house-picigin",
    "website": "https://wolt.com/en/discovery",
    "phone": "+38521257965",
    "rating": 3,
    "ratingScore": 7.6,
    "ratingVolume": 20,
    "timezone": "Europe/Zagreb"
  },
  {
    "name": "Zalogajnica \"Zvizda mora\"",
    "city": "Split",
    "countryCode": "HRV",
    "address": "≈†imiƒáeva 2",
    "postCode": "21000",
    "latitude": 16.45654320716858,
    "longitude": 43.5062612805631,
    "woltUrl": "https://wolt.com/hr/hrv/split/restaurant/zalogajnica-zvizda-mora",
    "website": "https://pizzeria-zvizda-mora.eatbu.hr/?lang=en",
    "phone": "+38521370108",
    "rating": 3,
    "ratingScore": 8.8,
    "ratingVolume": 20,
    "timezone": "Europe/Zagreb"
  },
  {
    "name": "Slatka ≈°torija",
    "city": "Split",
    "countryCode": "HRV",
    "address": "Mostarska 44",
    "postCode": "21000",
    "latitude": 16.4712641,
    "longitude": 43.52323029999999,
    "woltUrl": "https://wolt.com/hr/hrv/split/restaurant/slatka-torija",
    "website": "https://www.instagram.com/slatka_storija/",
    "phone": "+385917618199",
    "timezone": "Europe/Zagreb"
  },
  {
    "name": "Grill Toni",
    "city": "Solin",
    "countryCode": "HRV",
    "address": "Ul. Stjepana Radiƒáa 4",
    "postCode": "21210",
    "latitude": 16.4863036,
    "longitude": 43.5354943,
    "woltUrl": "https://wolt.com/hr/hrv/solin/restaurant/grill-tonist",
    "website": "https://www.facebook.com/people/Grill-Toni/100063592689249/",
    "phone": "+385953995001",
    "rating": 3,
    "ratingScore": 7.8,
    "ratingVolume": 50,
    "timezone": "Europe/Zagreb"
  },
  {
    "name": "Papito's Burgers & Fast Food",
    "city": "Split",
    "countryCode": "HRV",
    "address": "Setaliste Petra Preradovica 2",
    "postCode": "21000",
    "latitude": 16.44970449895254,
    "longitude": 43.50157345460032,
    "woltUrl": "https://wolt.com/hr/hrv/split/restaurant/papitos-burgers-fast-food",
    "website": "https://www.facebook.com/MaloJidro/?ref=page_internal",
    "phone": "+385955059389",
    "rating": 3,
    "ratingScore": 7.8,
    "ratingVolume": 20,
    "timezone": "Europe/Zagreb"
  },
  {
    "name": "Temperament",
    "city": "Split",
    "countryCode": "HRV",
    "address": " Put Firula 57",
    "postCode": " 21000",
    "latitude": 16.4568648,
    "longitude": 43.5019368,
    "woltUrl": "https://wolt.com/hr/hrv/split/restaurant/temperamentst",
    "website": "https://www.instagram.com/temperament.split/?igshid=YmMyMTA2M2Y%3D",
    "phone": "+385981837313",
    "rating": 4,
    "ratingScore": 9,
    "ratingVolume": 20,
    "timezone": "Europe/Zagreb"
  },
  {
    "name": "Tople Marende",
    "city": "Split",
    "countryCode": "HRV",
    "address": "Sarajevska 48a",
    "postCode": "21000",
    "latitude": 16.471852998850412,
    "longitude": 43.52496575818037,
    "woltUrl": "https://wolt.com/hr/hrv/split/restaurant/tople-marende",
    "website": "https://www.facebook.com/toplemarende.hr",
    "phone": "+385957231020",
    "rating": 4,
    "ratingScore": 9.4,
    "ratingVolume": 500,
    "timezone": "Europe/Zagreb"
  },
  {
    "name": "Food by Kebabsito",
    "city": "Split",
    "countryCode": "HRV",
    "address": "This is a virtual venue",
    "postCode": "21000",
    "latitude": 16.4625096,
    "longitude": 43.5129485,
    "woltUrl": "https://wolt.com/hr/hrv/split/restaurant/food-by-kebabsito",
    "website": "https://www.facebook.com/KebabsitoSplit/",
    "phone": "+385915641196",
    "rating": 3,
    "ratingScore": 8.6,
    "ratingVolume": 20,
    "timezone": "Europe/Zagreb"
  },
  {
    "name": "Restoran Bolero",
    "city": "Split",
    "countryCode": "HRV",
    "address": "Velebitska 125",
    "postCode": "21000",
    "latitude": 16.4720644,
    "longitude": 43.51334660000001,
    "woltUrl": "https://wolt.com/hr/hrv/split/restaurant/restoran-bolero",
    "website": "https://www.facebook.com/bolerosplit.restoran/",
    "phone": "+38521475167",
    "rating": 4,
    "ratingScore": 9.2,
    "ratingVolume": 200,
    "timezone": "Europe/Zagreb"
  },
  {
    "name": "Strada",
    "city": "Split",
    "countryCode": "HRV",
    "address": "Ul. Josipa Joviƒáa 93",
    "postCode": "21000",
    "latitude": 16.4832863,
    "longitude": 43.5185638,
    "woltUrl": "https://wolt.com/hr/hrv/split/restaurant/strada1",
    "website": "https://www.instagram.com/stradacaffebar/?hl=en",
    "phone": "+385959111196",
    "rating": 4,
    "ratingScore": 9.4,
    "ratingVolume": 20,
    "timezone": "Europe/Zagreb"
  },
  {
    "name": "Biberon Food Bar - Solin",
    "city": "Split",
    "countryCode": "HRV",
    "address": "Salona Mall, Ul. Antuna Gustava Mato≈°a 10",
    "postCode": "21210",
    "latitude": 16.4897919,
    "longitude": 43.5301383,
    "woltUrl": "https://wolt.com/hr/hrv/split/restaurant/biberon-food-bar-solin",
    "website": "https://biberon.hr/",
    "phone": "+38521687260",
    "rating": 4,
    "ratingScore": 9.2,
    "ratingVolume": 20,
    "timezone": "Europe/Zagreb"
  },
  {
    "name": "The food Shack",
    "city": "Split",
    "countryCode": "HRV",
    "address": "Ulica Josipa Joviƒáa 93",
    "postCode": "21000",
    "latitude": 16.4832863,
    "longitude": 43.5185638,
    "woltUrl": "https://wolt.com/hr/hrv/split/restaurant/the-food-shack",
    "website": "https://mallofsplit.hr/en/the-food-shack/",
    "phone": "+385918830861",
    "rating": 3,
    "ratingScore": 7.6,
    "ratingVolume": 50,
    "timezone": "Europe/Zagreb"
  },
  {
    "name": "Biberon Cakes - Solin",
    "city": "Split",
    "countryCode": "HRV",
    "address": "Salona Mall, Ulica Antuna Gustava Mato≈°a 10",
    "postCode": "21210",
    "latitude": 16.4897919,
    "longitude": 43.5301383,
    "woltUrl": "https://wolt.com/hr/hrv/split/restaurant/biberon-cakes-solin",
    "website": "https://biberoncakes.hr/",
    "phone": "+385998357159",
    "rating": 4,
    "ratingScore": 9.4,
    "ratingVolume": 50,
    "timezone": "Europe/Zagreb"
  },
  {
    "name": "Restoran Tingul",
    "city": "Split",
    "countryCode": "HRV",
    "address": "Solinska 84",
    "postCode": "21000",
    "latitude": 16.4827918,
    "longitude": 43.527865,
    "woltUrl": "https://wolt.com/hr/hrv/split/restaurant/restoran-tingul",
    "website": "https://hr-hr.facebook.com/Restoran-Tingul-1592081017747754/",
    "phone": "+385981984598",
    "rating": 3,
    "ratingScore": 8.4,
    "ratingVolume": 20,
    "timezone": "Europe/Zagreb"
  },
  {
    "name": "Slatkarija",
    "city": "Solin",
    "countryCode": "HRV",
    "address": "Ulica kralja Zvonimira 10",
    "postCode": "21210",
    "latitude": 16.4882661,
    "longitude": 43.5356361,
    "woltUrl": "https://wolt.com/hr/hrv/solin/restaurant/slatkarija",
    "website": "https://wolt.com/hr/hrv/solin",
    "phone": "+385981916193",
    "rating": 3,
    "ratingScore": 8.6,
    "ratingVolume": 20,
    "timezone": "Europe/Zagreb"
  },
  {
    "name": "No Name Pub",
    "city": "Solin",
    "countryCode": "HRV",
    "address": "Ul. kralja Zvonimira 87a",
    "postCode": "21210",
    "latitude": 16.4901318,
    "longitude": 43.5363917,
    "woltUrl": "https://wolt.com/hr/hrv/solin/restaurant/no-name-pub",
    "website": "https://m.facebook.com/nonamepubsolin/",
    "phone": "+385997497936",
    "rating": 4,
    "ratingScore": 9.2,
    "ratingVolume": 20,
    "timezone": "Europe/Zagreb"
  },
  {
    "name": "GOOD FOOD - Centar",
    "city": "Split",
    "countryCode": "HRV",
    "address": "Trumbiƒáeva obala 2",
    "postCode": "21000",
    "latitude": 16.4350168,
    "longitude": 43.508071,
    "woltUrl": "https://wolt.com/hr/hrv/split/restaurant/good-food-split",
    "website": "https://wolt.com/en/discovery",
    "phone": "+38521314040",
    "rating": 4,
    "ratingScore": 9.2,
    "ratingVolume": 500,
    "timezone": "Europe/Zagreb"
  },
  {
    "name": "4Burgers - Split",
    "city": "Split",
    "countryCode": "HRV",
    "address": "This is a virtual venue",
    "postCode": "21000",
    "latitude": 16.4353727,
    "longitude": 43.5080892,
    "woltUrl": "https://wolt.com/hr/hrv/split/restaurant/4burgers-split",
    "website": "https://goodfood.hr/",
    "phone": "+38521314040",
    "rating": 3,
    "ratingScore": 8.8,
    "ratingVolume": 500,
    "timezone": "Europe/Zagreb"
  },
  {
    "name": "Pizzeria Mirakul",
    "city": "Split",
    "countryCode": "HRV",
    "address": "Dubrovaƒçka 20",
    "postCode": "21000",
    "latitude": 16.4557204,
    "longitude": 43.5105853,
    "woltUrl": "https://wolt.com/hr/hrv/split/restaurant/pizzeria-mirakul",
    "website": "https://www.mirakul-pizza.com/",
    "phone": "+38521489025",
    "rating": 4,
    "ratingScore": 9.2,
    "ratingVolume": 500,
    "timezone": "Europe/Zagreb"
  },
  {
    "name": "Stari Plac Split 3",
    "city": "Split",
    "countryCode": "HRV",
    "address": "Ul. Ruƒëera Bo≈°koviƒáa 9",
    "postCode": "21000",
    "latitude": 16.4658742,
    "longitude": 43.5071354,
    "woltUrl": "https://wolt.com/hr/hrv/split/restaurant/stari-plac-split-3",
    "website": "https://stariplac.com/",
    "phone": "+38521540088",
    "rating": 4,
    "ratingScore": 9.2,
    "ratingVolume": 200,
    "timezone": "Europe/Zagreb"
  },
  {
    "name": "Bajamina - Vinkovaƒçka",
    "city": "Split",
    "countryCode": "HRV",
    "address": "Vinkovaƒçka ulica 21",
    "postCode": "21000",
    "latitude": 16.4547185,
    "longitude": 43.5122828,
    "woltUrl": "https://wolt.com/hr/hrv/split/restaurant/bajamina-vinkovacka",
    "website": "http://www.bajamina.com/",
    "phone": "+385976622235",
    "rating": 4,
    "ratingScore": 9.6,
    "ratingVolume": 500,
    "timezone": "Europe/Zagreb"
  },
  {
    "name": "Submarine Burger - Split",
    "city": "Split",
    "countryCode": "HRV",
    "address": "Poljiƒçka 39",
    "postCode": "21 000 ",
    "latitude": 16.4716916,
    "longitude": 43.5084203,
    "woltUrl": "https://wolt.com/hr/hrv/split/restaurant/submarine-burger-split",
    "website": "https://submarineburger.com/en/location/split/",
    "phone": "+38521213743",
    "rating": 4,
    "ratingScore": 9.2,
    "ratingVolume": 500,
    "timezone": "Europe/Zagreb"
  },
  {
    "name": "Submarine Burger - Mall of Split",
    "city": "Split",
    "countryCode": "HRV",
    "address": "Josipa Joviƒáa 93",
    "postCode": "21000",
    "latitude": 16.4832863,
    "longitude": 43.5185638,
    "woltUrl": "https://wolt.com/hr/hrv/split/restaurant/submarine-burger-mall-of-split",
    "website": "https://submarineburger.com/en/location/split/",
    "phone": "+38521213752",
    "rating": 4,
    "ratingScore": 9.2,
    "ratingVolume": 500,
    "timezone": "Europe/Zagreb"
  },
  {
    "name": "Food Bar Doza üöó",
    "city": "Split",
    "countryCode": "HRV",
    "address": "Gunduliƒáeva 13",
    "postCode": "21000",
    "latitude": 16.4383175,
    "longitude": 43.5144579,
    "woltUrl": "https://wolt.com/hr/hrv/split/restaurant/food-bar-doza-sd",
    "website": "https://www.facebook.com/foodbardoza/?locale=hr_HR",
    "phone": "+385977111169",
    "rating": 3,
    "ratingScore": 8.6,
    "ratingVolume": 10,
    "timezone": "Europe/Zagreb"
  },
  {
    "name": "Pinsa Romana BY ZS",
    "city": "Split",
    "countryCode": "HRV",
    "address": "This is a virtual venue",
    "postCode": "210000",
    "latitude": 16.4501318,
    "longitude": 43.5200858,
    "woltUrl": "https://wolt.com/hr/hrv/split/restaurant/pinsa-romana-st",
    "website": "https://pinsaromana.webnode.it/",
    "phone": "+385916004862",
    "rating": 3,
    "ratingScore": 8.6,
    "ratingVolume": 20,
    "timezone": "Europe/Zagreb"
  }
]